[{"div":"FLS","store":"1","place_name":"Downtown Seattle","direct_ph":"206.628.2111","street_address":"500 Pine St","city":"Seattle","state":"Washington","zip":"98101","operator":"8.841.0111","area":"Seattle","region":"WA/AK/HI","lat":47.611881,"lng":-122.3362247},{"div":"FLS","store":"2","place_name":"Northgate","direct_ph":"206.364.8800","street_address":"401 NE Northgate Way","city":"Seattle","state":"Washington","zip":"98125","operator":"8.842.0111","area":"Seattle","region":"WA/AK/HI","lat":47.7069816,"lng":-122.3258042},{"div":"FLS","store":"4","place_name":"Bellevue Square","direct_ph":"425.455.5800","street_address":"100 Bellevue Sq","city":"Bellevue","state":"Washington","zip":"98004","operator":"8.844.0111","area":"Seattle","region":"WA/AK/HI","lat":47.61121139999999,"lng":-122.2015299},{"div":"FLS","store":"5","place_name":"Southcenter","direct_ph":"206.246.0400","street_address":"100 Southcenter Shopping Center","city":"Tukwila","state":"Washington","zip":"98188","operator":"8.845.0111","area":"Seattle","region":"WA/AK/HI","lat":47.45906799999999,"lng":-122.2612537},{"div":"FLS","store":"6","place_name":"Tacoma Mall","direct_ph":"253.475.3630","street_address":"4502 South Steele Street","city":"Tacoma","state":"Washington","zip":"98409","operator":"8.846.0111","area":null,"region":"WA/AK/HI","lat":47.2175154,"lng":-122.4684954},{"div":"FLS","store":"9","place_name":"Spokane","direct_ph":"509.455.6111","street_address":"828 West Main Ave","city":"Spokane","state":"Washington","zip":"99201","operator":"8.849.0111","area":null,"region":"WA/AK/HI","lat":47.6590025,"lng":-117.4239834},{"div":"FLS","store":"10","place_name":"Alderwood Mall","direct_ph":"425.771.5755","street_address":"3200 184th St SW","city":"Lynwood","state":"Washington","zip":"98037","operator":"8.850.0111","area":null,"region":"WA/AK/HI","lat":47.8314001,"lng":-122.2735798},{"div":"FLS","store":"12","place_name":"Anchorage ","direct_ph":"907.279.7622","street_address":"603 D Street","city":"Anchorage","state":"Alaska","zip":"99501","operator":"8.852.0111","area":null,"region":"WA/AK/HI","lat":61.21645179999999,"lng":-149.889186},{"div":"FLS","store":"20","place_name":"Downtown Portland","direct_ph":"503.224.6666","street_address":"701 SW Broadway","city":"Portland","state":"Oregon","zip":"97205","operator":"8.820.0111","area":null,"region":"NW","lat":45.5193708,"lng":-122.6797738},{"div":"FLS","store":"21","place_name":"Lloyd Center","direct_ph":"503.287.2444","street_address":"1001 Lloyd Center","city":"Portland","state":"Oregon","zip":"97232","operator":"8.821.0111","area":"Portland","region":"NW","lat":45.5321644,"lng":-122.6521983},{"div":"FLS","store":"23","place_name":"Salem Center","direct_ph":"503.371.7710","street_address":"420 Center Street NE","city":"Salem","state":"Oregon","zip":"97301","operator":"8.823.0111","area":null,"region":"NW","lat":44.94308900000001,"lng":-123.0357349},{"div":"FLS","store":"24","place_name":"Clackamas Town Center","direct_ph":"503.652.1810","street_address":"11900 SE 82nd Ave","city":"Portland","state":"Oregon","zip":"97086","operator":"8.824.0111","area":"Portland","region":"NW","lat":45.437724,"lng":-122.576108},{"div":"FLS","store":"25","place_name":"Washington Square","direct_ph":"503.620.0555","street_address":"9700 SW Washington Square Rd","city":"Tigard","state":"Oregon","zip":"97223","operator":"8.825.0111","area":"Portland","region":"NW","lat":45.4476344,"lng":-122.7830099},{"div":"FLS","store":"26","place_name":"Vancouver","direct_ph":"360.256.8666","street_address":"8601 NE Vancouver Mall Dr","city":"Vancouver","state":"Washington","zip":"98662","operator":"8.826.0111","area":null,"region":"NW","lat":45.6560998,"lng":-122.5842845},{"div":"FLS","store":"32","place_name":"Fashion Place","direct_ph":"801.261.4402","street_address":"6191 South State Street","city":"Murray","state":"Utah","zip":"84107","operator":"8.832.0111","area":"Salt Lake City","region":"SD/MT","lat":40.635922,"lng":-111.884251},{"div":"FLS","store":"34","place_name":"Park Meadows","direct_ph":"303.799.3400","street_address":"8465 Park Meadows Center Dr","city":"Littleton","state":"Colorado","zip":"80124","operator":"8.834.0111","area":"Denver","region":"SD/MT","lat":39.5617222,"lng":-104.8787727},{"div":"FLS","store":"35","place_name":"FlatIron Crossing","direct_ph":"720.887.0333","street_address":"21 West FlatIron Circle","city":"Broomfield","state":"Colorado","zip":"80021","operator":"8.835.0111","area":"Denver","region":"SD/MT","lat":39.935282,"lng":-105.1338959},{"div":"FLS","store":"37","place_name":"Cherry Creek","direct_ph":"720.746.2424","street_address":"2810 East 1st Avenue","city":"Denver","state":"Colorado","zip":"80206","operator":"8.837.0111","area":"Denver","region":"SD/MT","lat":39.716664,"lng":-104.95564},{"div":"FLS","store":"38","place_name":"University Mall","direct_ph":"801.426.2800","street_address":"693 East University Parkway","city":"Orem","state":"Utah","zip":"84097","operator":"8.838.0111","area":null,"region":"SD/MT","lat":40.2731827,"lng":-111.6787028},{"div":"FLS","store":"220","place_name":"Michigan Ave","direct_ph":"312.464.1515","street_address":"55 East Grand Ave","city":"Chicago","state":"Illinois","zip":"60611","operator":"8.220.0111","area":"Chicago","region":"Central","lat":41.8916878,"lng":-87.6263271},{"div":"FLS","store":"221","place_name":"Oakbrook Center","direct_ph":"630.571.2121","street_address":"10 Oakbrook Center","city":"Oak Brook","state":"Illinois","zip":"60523","operator":"8.221.0111","area":"Chicago","region":"Central","lat":41.850436,"lng":-87.95440119999999},{"div":"FLS","store":"222","place_name":"Mall Of America","direct_ph":"952.883.2121","street_address":"1000 NW Court","city":"Bloomington","state":"Minnesota","zip":"55425","operator":"8.222.0111","area":null,"region":"Central","lat":44.626522,"lng":-93.78174},{"div":"FLS","store":"223","place_name":"Old Orchard Center","direct_ph":"847.677.2121","street_address":"4937 Old Orchard Shopping Center","city":"Skokie","state":"Illinois","zip":"60077","operator":"8.223.0111","area":"Chicago","region":"Central","lat":42.06175,"lng":-87.7490567},{"div":"FLS","store":"225","place_name":"Woodfield Shopping Center","direct_ph":"847.605.2121","street_address":"6 Woodfield Shopping Center","city":"Schaumburg","state":"Illinois","zip":"60173","operator":"8.225.0111","area":"Chicago","region":"Central","lat":42.048759,"lng":-88.0384918},{"div":"FLS","store":"226","place_name":"Circle Centre","direct_ph":"317.636.2121","street_address":"130 South Meridian St","city":"Indianapolis","state":"Indiana","zip":"46225","operator":"8.226.0111","area":null,"region":"Central","lat":39.764938,"lng":-86.15870699999999},{"div":"FLS","store":"227","place_name":"Beachwood Place - Cleveland","direct_ph":"216.378.2121","street_address":"26200 Cedar Rd","city":"Beachwood","state":"Ohio","zip":"44122","operator":"8.227.0111","area":null,"region":"Central","lat":41.50123749999999,"lng":-81.4951847},{"div":"FLS","store":"228","place_name":"Somerset Collection","direct_ph":"248.816.5100","street_address":"2850 West Big Beaver Rd","city":"Troy","state":"Michigan","zip":"48084","operator":"8.228.0111","area":"Detroit","region":"Central","lat":42.56271,"lng":-83.185822},{"div":"FLS","store":"230","place_name":"Oak Park Mall - Kansas City","direct_ph":"913.492.8111","street_address":"11143 West 95th St","city":"Overland Park","state":"Kansas","zip":"66214","operator":"8.230.0111","area":null,"region":"Central","lat":38.9523735,"lng":-94.7184643},{"div":"FLS","store":"232","place_name":"West County","direct_ph":"314.255.2000","street_address":"47 West County Center","city":"Des Peres","state":"Missouri","zip":"63131","operator":"8.232.0111","area":null,"region":"Central","lat":38.6008034,"lng":-90.4476402},{"div":"FLS","store":"234","place_name":"Easton Town Center","direct_ph":"614.416.7111","street_address":"4000 Worth Ave","city":"Columbus","state":"Ohio","zip":"43219","operator":"8.234.0111","area":null,"region":"Central","lat":40.0543064,"lng":-82.91286459999999},{"div":"FLS","store":"235","place_name":"Twelve Oaks Mall","direct_ph":"248.504.5700","street_address":"27640 Novi Road","city":"Novi","state":"Michigan","zip":"48377","operator":"8.235.0111","area":"Detroit","region":"Central","lat":42.4927657,"lng":-83.476104},{"div":"FLS","store":"236","place_name":"Partridge Creek","direct_ph":"586.203.4360","street_address":"17310 Hall Road","city":"Clinton Township","state":"Michigan","zip":"48038","operator":"8.236.0111","area":"Detroit","region":"Central","lat":42.625388,"lng":-82.948779},{"div":"FLS","store":"237","place_name":"Ross Park","direct_ph":"412.548.4300","street_address":"1000 Ross Park Mall Dr.","city":"Pittsburg","state":"Pennsylvania","zip":"15237","operator":"8.237.0111","area":null,"region":"Central","lat":40.5428252,"lng":-80.0075487},{"div":"FLS","store":"238","place_name":"The Fashion Mall - Keystone","direct_ph":"317.810.9809","street_address":"8702 Keystone Crossing","city":"Indianapolis","state":"Indiana","zip":"46240","operator":"8.238.0111","area":null,"region":"Central","lat":39.91406509999999,"lng":-86.1111523},{"div":"FLS","store":"239","place_name":"Kenwood Town Centre","direct_ph":"513.699.4190","street_address":"7801 Montgomery Road","city":"Cincinnati","state":"Ohio","zip":"45236","operator":"8.239.0111","area":null,"region":"Central","lat":39.1992742,"lng":-84.3802103},{"div":"FLS","store":"320","place_name":"South Coast Plaza","direct_ph":"714.549.8300","street_address":"3333 Bristol Street","city":"Costa Mesa","state":"California","zip":"92626","operator":"8.320.0111","area":"Orange Co.","region":"OC","lat":33.6893807,"lng":-117.8877543},{"div":"FLS","store":"321","place_name":"Brea Mall","direct_ph":"714.529.0123","street_address":"500 Brea Mall Way","city":"Brea","state":"California","zip":"92821","operator":"8.321.0111","area":"Orange Co.","region":"OC","lat":33.915237,"lng":-117.8885792},{"div":"FLS","store":"322","place_name":"Los Cerritos Center","direct_ph":"562.924.0940","street_address":"300 Los Cerritos Center ","city":"Cerritos","state":"California","zip":"90703","operator":"8.322.0111","area":null,"region":"OC","lat":33.8645435,"lng":-118.0946602},{"div":"FLS","store":"323","place_name":"Montclair Plaza","direct_ph":"909.625.0821","street_address":"5015 Montclair Plaza Lane","city":"Montclair","state":"California","zip":"91763","operator":"8.323.0111","area":null,"region":"OC","lat":34.0851024,"lng":-117.6944791},{"div":"FLS","store":"324","place_name":"Main Place/Santa Ana","direct_ph":"714.972.2020","street_address":"2820 North Main Street","city":"Santa Ana","state":"California","zip":"92705","operator":"8.324.0111","area":"Orange Co.","region":"OC","lat":33.7739259,"lng":-117.8674379},{"div":"FLS","store":"325","place_name":"The Galleria at Tyler in Riverside","direct_ph":"951.351.3170","street_address":"3601 The Galleria at Tyler","city":"Riverside","state":"California","zip":"92503","operator":"8.325.0111","area":null,"region":"OC","lat":33.9095673,"lng":-117.4583842},{"div":"FLS","store":"326","place_name":"The Shops at Mission Viejo","direct_ph":"949.347.2710","street_address":"100 The shops at Mission Viejo","city":"Mission Viejo","state":"California","zip":"92691","operator":"8.326.0111","area":"Orange Co.","region":"OC","lat":33.5589558,"lng":-117.6678737},{"div":"FLS","store":"333","place_name":"Fashion Island ","direct_ph":"949.610.0700","street_address":"901 Newport Center Drive","city":"Newport Beach","state":"California","zip":"92660","operator":"8.333.0111","area":"Orange Co.","region":"OC","lat":33.6166551,"lng":-117.8785277},{"div":"FLS","store":"330","place_name":"Irvine Spectrum Center","direct_ph":"949.255.2800","street_address":"101 Fortune Drive","city":"Irvine","state":"California","zip":"92618","operator":"8.330.0111","area":"Orange Co.","region":"OC","lat":33.6486646,"lng":-117.7428103},{"div":"FLS","store":"340","place_name":"Glendale Galleria","direct_ph":"818.502.9922","street_address":"200 West Broadway","city":"Glendale","state":"California","zip":"91210","operator":"8.340.0111","area":"LA County","region":"LA","lat":34.146414,"lng":-118.2573587},{"div":"FLS","store":"341","place_name":"Topanga ","direct_ph":"818.884.7900","street_address":"21725 Victory Blvd.","city":"Canoga Park","state":"California","zip":"91303","operator":"8.341.0111","area":"LA County","region":"LA","lat":34.1886943,"lng":-118.6026597},{"div":"FLS","store":"342","place_name":"South Bay Galleria","direct_ph":"310.542.9440","street_address":"1835 Hawthorne Blvd","city":"Redondo Beach","state":"California","zip":"90278","operator":"8.342.0111","area":"LA County","region":"LA","lat":33.8723583,"lng":-118.3549716},{"div":"FLS","store":"343","place_name":"Westside Pavilion","direct_ph":"310.470.6155","street_address":"10830 West Pico Blvd","city":"Los Angeles","state":"California","zip":"90064","operator":"8.343.0111","area":"LA County","region":"LA","lat":34.0394079,"lng":-118.4278443},{"div":"FLS","store":"344","place_name":"Paso Nuevo in Santa Barbara","direct_ph":"805.564.8770","street_address":"17 West Canon Perdido St","city":"Santa Barbara","state":"California","zip":"93101","operator":"8.344.0111","area":null,"region":"LA","lat":34.4195257,"lng":-119.7015543},{"div":"FLS","store":"345","place_name":"Santa Anita ","direct_ph":"626.821.6363","street_address":"400 South Baldwin Ave","city":"Arcadia","state":"California","zip":"91007","operator":"8.345.0111","area":"LA County","region":"LA","lat":34.13283699999999,"lng":-118.051614},{"div":"FLS","store":"348","place_name":"Thousand Oaks","direct_ph":"805.418.4500","street_address":"346 W. Hillcrest Drive","city":"Thousand Oaks","state":"California","zip":"91360","operator":"8.348.0111","area":null,"region":"LA","lat":34.1836885,"lng":-118.8887469},{"div":"FLS","store":"349","place_name":"The Grove","direct_ph":"323.930.2230","street_address":"189 Grove Drive, Suite P80","city":"Los Angeles","state":"California","zip":"90036","operator":"8.349.0111","area":"LA County","region":"LA","lat":34.0713424,"lng":-118.3568692},{"div":"FLS","store":"353","place_name":"Santa Monica Place","direct_ph":"310.752.2701","street_address":"220 Broadway","city":"Santa Monica","state":"California","zip":"90401","operator":"8.353.0111","area":null,"region":null,"lat":34.0135769,"lng":-118.4948092},{"div":"FLS","store":"360","place_name":"Fashion Valley","direct_ph":"619.295.4441","street_address":"6997 Friars Rd","city":"San Diego","state":"California","zip":"92108","operator":"8.360.0111","area":"San Diego","region":"SD/MT","lat":32.768987,"lng":-117.168178},{"div":"FLS","store":"361","place_name":"University Towne Centre","direct_ph":"858.457.4575","street_address":"4321 La Jolla Village Dr","city":"San Diego","state":"California","zip":"92122","operator":"8.361.0111","area":"San Diego","region":"SD/MT","lat":32.8723948,"lng":-117.2113262},{"div":"FLS","store":"362","place_name":"Horton Plaza","direct_ph":"619.239.1700","street_address":"103 Horton Plaza","city":"San Diego","state":"California","zip":"92101","operator":"8.362.0111","area":"San Diego","region":"SD/MT","lat":32.7125043,"lng":-117.1637285},{"div":"FLS","store":"364","place_name":"North County","direct_ph":"760.740.0170","street_address":"270 East Via Rancho Pkwy","city":"Escondido","state":"California","zip":"92025","operator":"8.364.0111","area":"San Diego","region":"SD/MT","lat":33.0685083,"lng":-117.0662973},{"div":"FLS","store":"380","place_name":"Scottsdale Fashion Square","direct_ph":"480.946.4111","street_address":"7055 East Camelback Rd.","city":"Scottsdale","state":"Arizona","zip":"85251","operator":"8.380.0111","area":"Phoenix","region":"SD/MT","lat":33.502131,"lng":-111.9295376},{"div":"FLS","store":"381","place_name":"Chandler Fashion Center","direct_ph":"480.855.2500","street_address":"3199 West Chandler Blvd.","city":"Chandler","state":"Arizona","zip":"85226","operator":"8.381.0111","area":"Phoenix","region":"SD/MT","lat":33.303241,"lng":-111.900904},{"div":"FLS","store":"386","place_name":"Fashion Show","direct_ph":"702.862.2525","street_address":"3200 Las Vegas Blvd South","city":"Las Vegas","state":"Nevada","zip":"89109","operator":"8.386.0111","area":null,"region":"SD/MT","lat":36.1282071,"lng":-115.1730081},{"div":"FLS","store":"420","place_name":"Hillsdale Shopping Center","direct_ph":"650.570.5111","street_address":"130 Hillsdale Shopping Center","city":"San Mateo","state":"California","zip":"94403","operator":"8.420.0111","area":"San Fran","region":"N. Cal.","lat":37.533355,"lng":-122.3273176},{"div":"FLS","store":"421","place_name":"Broadway Plaza in Walnut Creek","direct_ph":"925.930.7959","street_address":"1200 Broadway Plaza","city":"Walnut Creek","state":"California","zip":"94596","operator":"8.421.0111","area":null,"region":"N. Cal.","lat":37.896922,"lng":-122.0585411},{"div":"FLS","store":"422","place_name":"Stanford Shopping Center","direct_ph":"650.323.5111","street_address":"550 Stanford Shopping Center","city":"Palo Alto","state":"California","zip":"94304","operator":"8.422.0111","area":"San Fran","region":"N. Cal.","lat":37.43916100000001,"lng":-122.174049},{"div":"FLS","store":"423","place_name":"The Village at Corte Madera","direct_ph":"415.927.1690","street_address":"1870 Redwood Hwy","city":"Corte Madera","state":"California","zip":"94925","operator":"8.423.0111","area":"San Fran","region":"N. Cal.","lat":37.9357705,"lng":-122.5156832},{"div":"FLS","store":"425","place_name":"Valley Fair","direct_ph":"408.248.2180","street_address":"2400 Forest Ave","city":"San Jose","state":"California","zip":"95128","operator":"8.425.0111","area":"San Fran","region":"N. Cal.","lat":37.326225,"lng":-121.947821},{"div":"FLS","store":"426","place_name":"Stonestown Galleria","direct_ph":"415.753.1344","street_address":"285 Winston Dr.","city":"San Francisco","state":"California","zip":"94132","operator":"8.426.0111","area":"San Fran","region":"N. Cal.","lat":37.726626,"lng":-122.478395},{"div":"FLS","store":"427","place_name":"San Francisco Centre","direct_ph":"415.243.8500","street_address":"865 Market St.","city":"San Francisco","state":"California","zip":"94103","operator":"8.427.0111","area":"San Fran","region":"N. Cal.","lat":37.7839508,"lng":-122.4071617},{"div":"FLS","store":"429","place_name":"Arden Fair","direct_ph":"916.646.2400","street_address":"1651 Arden Way","city":"Sacramento","state":"California","zip":"95815","operator":"8.429.0111","area":"Sacramento","region":"N. Cal.","lat":38.6022574,"lng":-121.4267803},{"div":"FLS","store":"430","place_name":"Stoneridge Mall in Pleasanton","direct_ph":"925.463.5050","street_address":"1600 Stoneridge Mall Rd.","city":"Pleasanton","state":"California","zip":"94588","operator":"8.430.0111","area":null,"region":"N. Cal.","lat":37.698219,"lng":-121.928651},{"div":"FLS","store":"434","place_name":"Galleria at Roseville","direct_ph":"916.780.7300","street_address":"1131 Galleria Blvd","city":"Roseville","state":"California","zip":"95678","operator":"8.434.0111","area":"Sacramento","region":"N. Cal.","lat":38.771576,"lng":-121.268783},{"div":"FLS","store":"520","place_name":"Garden State Plaza","direct_ph":"201.843.1122","street_address":"501 Garden State Plaza","city":"Paramus","state":"New Jersey","zip":"7652","operator":"8.520.0111","area":null,"region":"NE","lat":40.9181161,"lng":-74.0763632},{"div":"FLS","store":"521","place_name":"Menlo Park","direct_ph":"732.603.5000","street_address":"449 Menlo Park Drive","city":"Edison","state":"New Jersey","zip":"8837","operator":"8.521.0111","area":null,"region":"NE","lat":40.5485815,"lng":-74.33793849999999},{"div":"FLS","store":"522","place_name":"Freehold Raceway Mall","direct_ph":"732.308.1117","street_address":"3710 US Highway 9","city":"Freehold","state":"New Jersey","zip":"7728","operator":"8.522.0111","area":null,"region":"NE","lat":40.25537569999999,"lng":-74.3000984},{"div":"FLS","store":"523","place_name":"The Westchester","direct_ph":"914.946.1122","street_address":"135 Westchester Ave","city":"White Plains","state":"New York","zip":"10601","operator":"8.523.0111","area":null,"region":"NE","lat":41.0324103,"lng":-73.75828039999999},{"div":"FLS","store":"524","place_name":"Roosevelt Field","direct_ph":"516.746.0011","street_address":"630 Old Country Rd","city":"Garden City","state":"New York","zip":"11530","operator":"8.524.0111","area":null,"region":"NE","lat":40.7399709,"lng":-73.61357579999999},{"div":"FLS","store":"526","place_name":"Westfarms - Hartford","direct_ph":"860.521.9090","street_address":"600 Westfarms Mall","city":"Farmington","state":"Connecticut","zip":"6032","operator":"8.526.0111","area":null,"region":"NE","lat":41.72210889999999,"lng":-72.7627267},{"div":"FLS","store":"527","place_name":"The Mall at Short Hills","direct_ph":"973.467.1500","street_address":"1200 Morris Turnpike","city":"Short Hills","state":"New Jersey","zip":"7078","operator":"8.527.0111","area":null,"region":"NE","lat":40.7408679,"lng":-74.36336519999999},{"div":"FLS","store":"528","place_name":"Providence Place","direct_ph":"401.621.3111","street_address":"6 Providence Place","city":"Providence","state":"Rhode Island","zip":"2903","operator":"8.528.0111","area":null,"region":"NE","lat":41.827523,"lng":-71.4177047},{"div":"FLS","store":"531","place_name":"Nordstrom Natick Collection","direct_ph":"508.318.2600","street_address":"290 Speen St","city":"Natick","state":"Massachusetts","zip":"1760","operator":"8.531.0111","area":null,"region":"NE","lat":42.3028352,"lng":-71.38228629999999},{"div":"FLS","store":"534","place_name":"South Shore Plaza","direct_ph":"781.519.7200","street_address":"250 Granite St","city":"Braintree","state":"Massachusetts","zip":"2184","operator":"8.534.0111","area":null,"region":"NE","lat":42.21997,"lng":-71.02276700000002},{"div":"FLS","store":"535","place_name":"Burlington Mall","direct_ph":"781.345.7800","street_address":"75 Middlesex Turnpike","city":"Burlington","state":"Massachusetts","zip":"1803","operator":"8.535.0111","area":null,"region":"NE","lat":42.482107,"lng":-71.214398},{"div":"FLS","store":"536","place_name":"Northshore Mall","direct_ph":"978.278.7400","street_address":"210 Andover Street","city":"Peabody","state":"Massachusetts","zip":"1960","operator":"8.536.0111","area":null,"region":"NE","lat":42.540354,"lng":-70.944891},{"div":"FLS","store":"600","place_name":"Tysons Corner Center","direct_ph":"703.761.1121","street_address":"8075 Tysons Corner Center","city":"McLean","state":"Virginia","zip":"22102","operator":"8.620.0111","area":"Wash. D.C.","region":"Capital","lat":38.923899,"lng":-77.229529},{"div":"FLS","store":"621","place_name":"The Fashion Center at Pentagon City","direct_ph":"703.415.1121","street_address":"1400 South Hayes St","city":"Arlington","state":"Virginia","zip":"22202","operator":"8.621.0111","area":"Wash. D.C.","region":"Capital","lat":38.8614182,"lng":-77.0598869},{"div":"FLS","store":"622","place_name":"Towson Town Center - Baltimore","direct_ph":"410.296.2111","street_address":"700 Fairmount Ave","city":"Towson","state":"Maryland","zip":"21286","operator":"8.622.0111","area":null,"region":"Capital","lat":39.4037056,"lng":-76.59565049999999},{"div":"FLS","store":"623","place_name":"Montgomery Mall","direct_ph":"301.365.4111","street_address":"7111 Democracy Blvd","city":"Bethesda","state":"Maryland","zip":"20817","operator":"8.623.0111","area":"Wash. D.C.","region":"Capital","lat":39.0220643,"lng":-77.14665020000001},{"div":"FLS","store":"626","place_name":"Annapolis Mall","direct_ph":"410.573.1121","street_address":"1880 Annapolis Mall","city":"Annapolis","state":"Maryland","zip":"21401","operator":"8.626.0111","area":"Wash. D.C.","region":"Capital","lat":38.9877263,"lng":-76.5446576},{"div":"FLS","store":"628","place_name":"MacArthur Center","direct_ph":"757.314.1111","street_address":"301 Cumberland St","city":"Norfolk","state":"Virginia","zip":"23510","operator":"8.628.0111","area":null,"region":"Capital","lat":36.8486625,"lng":-76.2866416},{"div":"FLS","store":"629","place_name":"The Plaza at King of Prussia","direct_ph":"610.265.6111","street_address":"190 North Gulph Rd","city":"King Of Prussia","state":"Pennsylvania","zip":"19406","operator":"8.629.0111","area":null,"region":"Capital","lat":40.0865922,"lng":-75.3921854},{"div":"FLS","store":"631","place_name":"The Mall in Columbia","direct_ph":"410.715.2222","street_address":"10300 Little Patuxent Pkwy","city":"Columbia","state":"Maryland","zip":"21044","operator":"8.631.0111","area":"Wash. D.C.","region":"Capital","lat":39.2156245,"lng":-76.8616784},{"div":"FLS","store":"632","place_name":"Dulles Town Center","direct_ph":"571.434.4000","street_address":"21090 Dulles Town Circle","city":"Dulles","state":"Virginia","zip":"20166","operator":"8.632.0111","area":"Wash. D.C.","region":"Capital","lat":39.034281,"lng":-77.42365},{"div":"FLS","store":"635","place_name":"Short Pump Town Center","direct_ph":"804.364.6900","street_address":"11812 West Broad St","city":"Richmond","state":"Virginia","zip":"23233","operator":"8.635.0111","area":null,"region":"Capital","lat":37.654946,"lng":-77.6185064},{"div":"FLS","store":"637","place_name":"Nordstrom Cherry Hill Mall","direct_ph":"856.773.5600","street_address":"2000 Route 38","city":"Cherry Hill","state":"New Jersey","zip":"8003","operator":"8.637.0111","area":null,"region":"Capital","lat":39.94074500000001,"lng":-75.025747},{"div":"FLS","store":"639","place_name":"Christiana Mall","direct_ph":"302.613.6000","street_address":"100 Christiana Mall","city":"Newark","state":"Delaware","zip":"19702","operator":"8.639.0111","area":null,"region":"Capital","lat":39.680818,"lng":-75.6529746},{"div":"FLS","store":"706","place_name":"Ala Moana","direct_ph":"808.953.6100","street_address":"1519 Kapiolani Boulevard","city":"Honolulu","state":"Hawaii","zip":"96814","operator":"8.706.0111","area":null,"region":"N. Cal.","lat":21.2928227,"lng":-157.8423279},{"div":"FLS","store":"720","place_name":"Galleria Dallas","direct_ph":"972.702.0055","street_address":"5220 Alpha Rd","city":"Dallas","state":"Texas","zip":"75240","operator":"8.720.0111","area":"Dallas","region":"South","lat":32.9326077,"lng":-96.8199023},{"div":"FLS","store":"722","place_name":"North East Mall","direct_ph":"817.590.2599","street_address":"1101 Melbourne Rd","city":"Hurst","state":"Texas","zip":"76053","operator":"8.722.0111","area":"Dallas","region":"South","lat":32.830764,"lng":-97.19943300000001},{"div":"FLS","store":"723","place_name":"Northpark Center","direct_ph":"214.231.3900","street_address":"8687 N. Central Expressway Ste. 2000","city":"Dallas","state":"Texas","zip":"75034","operator":"8.723.0111","area":"Dallas","region":"South","lat":32.8680177,"lng":-96.7754736},{"div":"FLS","store":"724","place_name":"Stonebriar Centre","direct_ph":"972.712.3794","street_address":"2613 Preston Rd","city":"Frisco","state":"Texas","zip":"75034","operator":"8.724.0111","area":"Dallas","region":"South","lat":33.1001592,"lng":-96.80585490000001},{"div":"FLS","store":"730","place_name":"The Galleria","direct_ph":"832.201.2700","street_address":"5192 Hidalgo St","city":"Houston","state":"Texas","zip":"77056","operator":"8.730.0111","area":null,"region":"South","lat":29.7355416,"lng":-95.46426269999999},{"div":"FLS","store":"731","place_name":"Barton Creek Square","direct_ph":"512.691.3500","street_address":"2901 Capital of Texas Hwy South","city":"Austin","state":"Texas","zip":"78746","operator":"8.731.0111","area":null,"region":"South","lat":30.256297,"lng":-97.80865179999999},{"div":"FLS","store":"732","place_name":"La Cantera","direct_ph":"210.332.1900","street_address":"15900 La Cantera Parkway","city":"San Antonio","state":"Texas","zip":"78256","operator":"8.732.0111","area":null,"region":"South","lat":29.595483,"lng":-98.61500099999999},{"div":"FLS","store":"750","place_name":"South Park","direct_ph":"704.442.6000","street_address":"4400 Sharon Road","city":"Charlotte","state":"North Carolina","zip":"28211","operator":"8.750.0111","area":null,"region":"Capital","lat":35.153939,"lng":-80.8317551},{"div":"FLS","store":"751","place_name":"The Street at Southpoint","direct_ph":"919.806.3700","street_address":"6910 Fayetteville Road","city":"Durham","state":"North Carolina","zip":"27713","operator":"8.751.0111","area":null,"region":"Capital","lat":35.905837,"lng":-78.9377839},{"div":"FLS","store":"760","place_name":"Perimeter Mall","direct_ph":"770.394.1141","street_address":"4390 Ashford Dunwoody Rd NE","city":"Atlanta","state":"Georgia","zip":"30346","operator":"8.760.0111","area":"Atlanta","region":"South","lat":33.92223120000001,"lng":-84.33884499999999},{"div":"FLS","store":"761","place_name":"Mall Of Georgia","direct_ph":"678.546.1122","street_address":"3333 Buford Dr ","city":"Buford","state":"Georgia","zip":"30519","operator":"8.761.0111","area":"Atlanta","region":"South","lat":34.0670483,"lng":-83.98795299999999},{"div":"FLS","store":"762","place_name":"Town Center at Boca Raton","direct_ph":"561.620.5555","street_address":"5820 Glades Rd","city":"Boca Raton","state":"Florida","zip":"33431","operator":"8.762.0111","area":"Palm Beach","region":"South","lat":26.3682341,"lng":-80.1338863},{"div":"FLS","store":"763","place_name":"Village of Merrick Park","direct_ph":"786.999.1313","street_address":"4310 Ponce de Leon Blvd","city":"Coral Gables","state":"Florida","zip":"33146","operator":"8.763.0111","area":"Miami","region":"South","lat":25.731652,"lng":-80.260159},{"div":"FLS","store":"765","place_name":"International Plaza","direct_ph":"813.875.4400","street_address":"2223 North Westshore Blvd","city":"Tampa","state":"Florida","zip":"33607","operator":"8.765.0111","area":"Tampa","region":"South","lat":27.9626655,"lng":-82.5204806},{"div":"FLS","store":"766","place_name":"The Mall at Wellington Green","direct_ph":"561.227.3000","street_address":"10320 West Forest Hills Blvd","city":"Wellington","state":"Florida","zip":"33414","operator":"8.766.0111","area":"Tampa","region":"South","lat":29.2707756,"lng":-81.08363899999999},{"div":"FLS","store":"767","place_name":"The Florida Mall","direct_ph":"407.888.7889","street_address":"8001 S. Orange Blossom Trl","city":"Orlando","state":"Florida","zip":"32809","operator":"8.767.0111","area":"Orlando","region":"South","lat":28.4459401,"lng":-81.3959455},{"div":"FLS","store":"768","place_name":"Dadeland Mall","direct_ph":"786.709.4100","street_address":"7239 N. Kendall Dr.","city":"Miami","state":"Florida","zip":"33156","operator":"8.768.0111","area":"Miami","region":"South","lat":25.6888318,"lng":-80.3106944},{"div":"FLS","store":"772","place_name":"Phipps Plaza","direct_ph":"404.442.3000","street_address":"3500 Peachtree Rd NE","city":"Atlanta","state":"Georgia","zip":"30326","operator":"8.772.0111","area":"Atlanta","region":"South","lat":33.85428,"lng":-84.360573},{"div":"FLS","store":"773","place_name":"The Gardens","direct_ph":"561.340.2100","street_address":"311 PGA Blvd","city":"Palm Beach Gardens","state":"Florida","zip":"33410","operator":"8.773.0111","area":"Palm Beach","region":"South","lat":26.8391124,"lng":-80.1299417},{"div":"FLS","store":"774","place_name":"Aventura Mall","direct_ph":"305.356.6900","street_address":"19507 Biscayne Boulevard","city":"Aventura","state":"Florida","zip":"33180","operator":"8.774.0111","area":"Miami","region":"South","lat":25.9579888,"lng":-80.14659999999999},{"div":"FLS","store":"775","place_name":"Waterside Shops","direct_ph":"239.325.6100","street_address":"5489 Tamiami Trail North","city":"Naples","state":"Florida","zip":"34108","operator":"8.775.0111","area":"Naples","region":"South","lat":26.2138624,"lng":-81.8005859}]